[
  {
    "title": "天安门",
    "pinyin": "tiananmen",
    "location": {
      "lat": 39.90872,
      "lng": 116.39748
    },
    "id": "ChIJtZy9k79S8DURURn7o3wj30Q"
  },
  {
    "title": "香山公园",
    "pinyin": "xiangshangongyuan",
    "location": {
      "lat": 39.9926176,
      "lng": 116.1867996
    },
    "id": "ChIJIc2UcK9b8DURcnVb7tVrF7o"
  },
  {
    "title": "尤伦斯当代艺术中心",
    "pinyin": "youlunsidangdaiyishuzhongxin",
    "location": {
      "lat": 39.9838588,
      "lng": 116.4951909
    },
    "id": "ChIJl3OsUL-r8TURjRjdvXQ_TTE"
  },
  {
    "title": "国家体育场",
    "wiki": "国家体育场_(北京)",
    "pinyin": "guojiatiyuchang",
    "location": {
      "lat": 39.9929431,
      "lng": 116.3965112
    },
    "id": "ChIJ-3xmbcJU8DURR-pxV2SC8jA"
  },
  {
    "title": "北京动物园",
    "pinyin": "beijingdongwuyuan",
    "location": {
      "lat": 39.93879400000001,
      "lng": 116.339571
    },
    "id": "ChIJPRYRTDJS8DUR5fFsHhL_tW4"
  },
  {
    "title": "中国人民大学",
    "pinyin": "zhongguorenmindaxue",
    "location": {
      "lat": 39.9696062,
      "lng": 116.3188145
    },
    "id": "ChIJjSNcWFtR8DURiHGXEcrhDbg"
  },
  {
    "title": "麦当劳牡丹园店",
    "pinyin": "maidanglaomudanyuandian",
    "location": {
      "lat": 39.9756227,
      "lng": 116.3696116
    },
    "id": "ChIJod0J44BU8DURpZk97WVBJ7Q"
  }
]